# Time (s),Altitude (m),Vertical velocity (m/s),Vertical acceleration (m/s²),Total velocity (m/s),Total acceleration (m/s²),Position East of launch (m),Position North of launch (m),Lateral distance (m),Lateral direction (°),Lateral velocity (m/s),Lateral acceleration (m/s²),Latitude (°),Longitude (°),Gravitational acceleration (m/s²),Angle of attack (°),Roll rate (°/s),Pitch rate (°/s),Yaw rate (°/s),Mass (g),Propellant mass (g),Longitudinal moment of inertia (kg·m²),Rotational moment of inertia (kg·m²),CP location (cm),CG location (cm),Stability margin calibers (​),Mach number (​),Reynolds number (​),Thrust (N),Drag force (N),Drag coefficient (​),Axial drag coefficient (​),Friction drag coefficient (​),Pressure drag coefficient (​),Base drag coefficient (​),Normal force coefficient (​),Pitch moment coefficient (​),Yaw moment coefficient (​),Side force coefficient (​),Roll moment coefficient (​),Roll forcing coefficient (​),Roll damping coefficient (​),Pitch damping coefficient (​),Coriolis acceleration (m/s²),Reference length (cm),Reference area (cm²),Vertical orientation (zenith) (°),Lateral orientation (azimuth) (°),Wind velocity (m/s),Air temperature (°C),Air pressure (mbar),Speed of sound (m/s),Simulation time step (s),Computation time (s)
0,0,0,39.751,0,39.97,0,0,0,0,0,4.178,32.9,-106,9.7954,84,0,0,0,36410,3171.7,30.468,0.14803,NaN,335.43,NaN,0.0055786,577863,1810,8.9812e-5,0.82766,0.0022424,0.63631,0.07134,0.12,NaN,NaN,NaN,NaN,NaN,NaN,NaN,NaN,0,15.24,182.41,84,0,NaN,14.675,1007.4,340.19,0.01,0.0026434
0.01,0.0019875,0.39751,138.63,0.3997,139.39,2.089e-4,0,2.089e-4,0,0.04178,14.57,32.9,-106,9.7954,72.432,0,0,0,36410,3171.7,30.468,0.14803,NaN,335.43,NaN,0.0058271,603609,5429.9,0.0021332,0.82188,0.048813,0.63054,0.07134,0.12,NaN,NaN,NaN,NaN,NaN,NaN,NaN,NaN,4.9055e-5,15.24,182.41,84,0,NaN,14.675,1007.4,340.19,0.01,0.003241
0.02,0.012895,1.784,237.55,1.7938,238.86,0.0013553,0,0.0013553,0,0.18751,24.968,32.9,-106,9.7954,43.52,0,0,0,36403,3165,30.466,0.14801,NaN,335.42,NaN,0.0080781,836783,9049.9,0.045997,0.78098,0.54768,0.58963,0.071341,0.12001,NaN,NaN,NaN,NaN,NaN,NaN,NaN,NaN,2.2016e-4,15.24,182.41,84,0,NaN,14.675,1007.4,340.19,0.01,0.0037278
0.03,0.042614,4.1599,317.91,4.1828,319.66,0.0044789,0,0.0044789,0,0.43722,33.413,32.9,-106,9.7954,23.385,0,0,0,36396,3158.3,30.464,0.14799,NaN,335.42,NaN,0.014034,1453684,11989,0.22769,0.72035,0.89832,0.52898,0.071344,0.12003,NaN,NaN,NaN,NaN,NaN,NaN,NaN,NaN,5.1336e-4,15.24,182.41,84,0,NaN,14.675,1007.4,340.19,0.01,0.0042318
0.04,0.10011,7.3395,324.56,7.3799,326.35,0.010522,0,0.010522,0,0.77141,34.113,32.9,-106,9.7954,14.054,0,0,0,36388,3150,30.461,0.14797,NaN,335.41,NaN,0.022967,2379071,12230,0.58378,0.67386,0.85991,0.48243,0.071353,0.12007,NaN,NaN,NaN,NaN,NaN,NaN,NaN,NaN,9.0575e-4,15.24,182.41,84,0,NaN,14.674,1007.4,340.19,0.01,0.0048622
0.05,0.18974,10.586,323.64,10.644,325.42,0.019942,0,0.019942,0,1.1126,34.016,32.9,-106,9.7954,9.9375,0,0,0,36377,3139.1,30.457,0.14794,NaN,335.41,NaN,0.032361,3352144,12193,1.0326,0.64506,0.76613,0.45356,0.071367,0.12014,NaN,NaN,NaN,NaN,NaN,NaN,NaN,NaN,0.0013064,15.24,182.41,84,0,NaN,14.674,1007.4,340.19,0.01,0.0052836
0.06,0.31178,13.823,322.73,13.899,324.51,0.03277,0,0.03277,0,1.4529,33.92,32.9,-106,9.7954,7.7429,0,0,0,36365,3127.1,30.453,0.1479,NaN,335.4,NaN,0.041831,4333013,12157,1.6073,0.63162,0.71374,0.44001,0.071386,0.12023,NaN,NaN,NaN,NaN,NaN,NaN,NaN,NaN,0.0017059,15.24,182.41,84,0,NaN,14.673,1007.3,340.19,0.01,0.0056134
0.07,0.46615,17.051,321.81,17.145,323.58,0.048995,0,0.048995,0,1.7922,33.824,32.9,-106,9.7954,6.3631,0,0,0,36353,3115.2,30.449,0.14787,NaN,335.39,NaN,0.051313,5315075,12120,2.3385,0.63047,0.69013,0.43872,0.071409,0.12034,NaN,NaN,NaN,NaN,NaN,NaN,NaN,NaN,0.0021043,15.24,182.41,84,0,NaN,14.672,1007.3,340.19,0.01,0.0059327
0.08,0.65276,20.27,320.89,20.382,322.66,0.068608,0,0.068608,0,2.1305,33.727,32.9,-106,9.7954,5.4165,0,0,0,36341,3103.2,30.445,0.14784,NaN,335.38,NaN,0.060788,6296418,12083,3.2094,0.62961,0.67491,0.43769,0.071437,0.12048,NaN,NaN,NaN,NaN,NaN,NaN,NaN,NaN,0.0025015,15.24,182.41,84,0,NaN,14.671,1007.3,340.19,0.01,0.0064521
0.09,0.87151,23.48,319.96,23.609,321.73,0.091599,0,0.091599,0,2.4678,33.63,32.9,-106,9.7954,4.7271,0,0,0,36329,3091.3,30.441,0.1478,NaN,335.37,NaN,0.070248,7276151,12046,4.2205,0.62894,0.66459,0.43683,0.07147,0.12064,NaN,NaN,NaN,NaN,NaN,NaN,NaN,NaN,0.0028976,15.24,182.41,84,0,NaN,14.669,1007.3,340.19,0.01,0.0069541
0.1,1.1223,26.68,319.03,26.827,320.79,0.11796,0,0.11796,0,2.8042,33.532,32.9,-106,9.7954,4.2029,0,0,0,36317,3079.3,30.437,0.14777,NaN,335.36,NaN,0.079688,8253801,12009,5.3712,0.62842,0.65729,0.43609,0.071508,0.12083,NaN,NaN,NaN,NaN,NaN,NaN,NaN,NaN,0.0032925,15.24,182.41,84,0,NaN,14.668,1007.3,340.19,0.01,0.0077391
0.11,1.4051,29.871,318.1,30.036,319.85,0.14768,0,0.14768,0,3.1396,33.434,32.9,-106,9.7954,3.7269,0,0,0,36305,3067.3,30.432,0.14773,NaN,335.36,NaN,0.089089,9227315,11973,6.6509,0.62801,0.65121,0.43543,0.07155,0.12103,NaN,NaN,NaN,NaN,NaN,NaN,NaN,NaN,0.0036864,15.24,182.41,84,0,NaN,14.666,1007.2,340.19,0.01,0.0081254
0.12,1.7197,33.053,317.16,33.235,318.91,0.18075,0,0.18075,0,3.474,33.335,32.9,-106,9.7954,3.3428,0,0,0,36293,3055.4,30.428,0.1477,NaN,335.35,NaN,0.098468,10198414,11936,8.0682,0.6277,0.64668,0.43484,0.071597,0.12126,NaN,NaN,NaN,NaN,NaN,NaN,NaN,NaN,0.004079,15.24,182.41,84,0,NaN,14.664,1007.2,340.19,0.01,0.0086013
0.13,2.0661,36.225,316.22,36.425,317.96,0.21715,0,0.21715,0,3.8074,33.236,32.9,-106,9.7954,3.0262,0,0,0,36281,3043.4,30.424,0.14766,NaN,335.34,NaN,0.10782,11166942,11899,9.6221,0.62747,0.64324,0.43431,0.071649,0.12151,NaN,NaN,NaN,NaN,NaN,NaN,NaN,NaN,0.0044705,15.24,182.41,84,0,NaN,14.662,1007.1,340.18,0.01,0.0091986
0.14,2.4441,39.388,315.27,39.605,317.01,0.25689,0,0.25689,0,4.1399,33.136,32.9,-106,9.7954,2.7609,0,0,0,36269,3031.5,30.42,0.14763,NaN,335.33,NaN,0.11715,12132785,11862,11.312,0.6273,0.64058,0.43381,0.071705,0.12178,NaN,NaN,NaN,NaN,NaN,NaN,NaN,NaN,0.0048608,15.24,182.41,84,0,NaN,14.659,1007.1,340.18,0.01,0.010461
0.15,2.8538,42.541,314.32,42.776,316.05,0.29995,0,0.29995,0,4.4713,33.036,32.9,-106,9.7954,2.5352,0,0,0,36257,3019.5,30.416,0.14759,NaN,335.32,NaN,0.12646,13095859,11825,13.136,0.62719,0.63849,0.43334,0.071765,0.12208,NaN,NaN,NaN,NaN,NaN,NaN,NaN,NaN,0.0052499,15.24,182.41,84,0,NaN,14.656,1007.1,340.18,0.01,0.011255
0.16,3.2949,45.685,313.36,45.937,315.09,0.34631,0,0.34631,0,4.8017,32.936,32.9,-106,9.7954,2.3619,0,0,0,36245,3007.5,30.412,0.14756,NaN,335.31,NaN,0.13574,14056849,11789,15.1,0.62713,0.63702,0.4329,0.07183,0.1224,NaN,NaN,NaN,NaN,NaN,NaN,NaN,NaN,0.0056379,15.24,182.41,84,0,NaN,14.654,1007,340.18,0.01,0.015178
0.17,3.7674,48.819,312.4,49.088,314.12,0.39597,0,0.39597,0,5.1311,32.835,32.9,-106,9.7954,2.2112,0,0,0,36233,2995.6,30.408,0.14752,NaN,335.31,NaN,0.145,15014919,11752,17.198,0.62714,0.63586,0.43251,0.071899,0.12273,NaN,NaN,NaN,NaN,NaN,NaN,NaN,NaN,0.0060247,15.24,182.41,84,0,NaN,14.651,1006.9,340.18,0.01,0.015698
0.18,4.2713,51.944,311.43,52.23,313.15,0.44893,0,0.44893,0,5.4595,32.733,32.9,-106,9.7954,2.079,0,0,0,36222,2983.6,30.404,0.14749,NaN,335.3,NaN,0.15423,1.597e7,11715,19.436,0.62745,0.63521,0.43239,0.071973,0.12309,NaN,NaN,NaN,NaN,NaN,NaN,NaN,NaN,0.0064103,15.24,182.41,84,0,NaN,14.647,1006.9,340.18,0.0099207,0.016032
0.18992,4.8019,55.034,310.48,55.337,312.19,0.5047,0,0.5047,0,5.7843,32.632,32.9,-106,9.7954,1.9629,0,0,0,36210,2971.7,30.4,0.14746,NaN,335.29,NaN,0.16336,16914600,11680,21.788,0.62778,0.63473,0.43226,0.07205,0.12347,NaN,NaN,NaN,NaN,NaN,NaN,NaN,NaN,0.0067917,15.24,182.41,84,0,NaN,14.644,1006.8,340.17,0.0093636,0.016341
0.19928,5.3309,57.942,309.54,58.261,311.3,0.56029,0,0.56029,0,6.09,33.096,32.9,-106,9.7954,1.8649,0,0,0,36198,2960.2,30.396,0.14742,353.36,335.28,1.1862,0.17195,17803389,11637,24.126,0.62811,0.63441,0.43214,0.072127,0.12384,0.43557,0.51677,6.5882e-5,0,0,0,0,0,0.0071505,15.24,182.41,84,0,NaN,14.64,1006.8,340.17,0.014045,0.017044
0.21333,6.1752,62.288,307.91,62.632,309.66,0.64909,4.8747e-8,0.64909,4.3029e-6,6.5544,32.9,32.9,-106,9.7954,1.7217,0,0.083732,8.3789e-6,36184,2946.2,30.391,0.14738,354.26,335.27,1.2461,0.18478,19130870,11572,27.843,0.62863,0.63404,0.43194,0.07225,0.12444,0.39927,0.49741,-3.6487e-4,0,0,0,0,1.392e-5,0.0076869,15.24,182.41,83.999,-1.1914e-6,NaN,14.635,1006.7,340.17,0.021068,0.01752
0.2344,7.5558,68.77,305.44,69.151,307.18,0.79448,3.1484e-7,0.79448,2.2706e-5,7.2468,32.62,32.9,-106,9.7954,1.537,0,0.22566,-1.1845e-5,36163,2925.2,30.383,0.14732,355.45,335.26,1.3253,0.20393,21110648,11475,33.895,0.62947,0.63382,0.43162,0.072448,0.12541,0.35321,0.46813,-2.649e-4,0,0,0,0,8.3017e-5,0.0084871,15.24,182.41,83.996,-4.8614e-6,NaN,14.626,1006.5,340.16,0.031602,0.017961
0.266,9.8815,78.412,301.7,78.847,303.42,1.0398,1.1915e-6,1.0398,6.5655e-5,8.2764,32.215,32.9,-106,9.7954,1.3549,0,0.47478,1.9282e-4,36132,2893.7,30.373,0.14723,356.68,335.23,1.4074,0.23244,24056661,11330,44.054,0.63088,0.6343,0.43108,0.072781,0.12702,0.3087,0.43409,-2.7037e-4,0,0,0,0,2.8288e-4,0.0096772,15.24,182.41,83.985,-2.6196e-5,NaN,14.611,1006.2,340.15,0.047403,0.018915
0.3134,13.937,92.686,296.01,93.203,297.7,1.4683,3.6829e-6,1.4683,1.4372e-4,9.8015,31.681,32.9,-106,9.7954,1.1606,0,0.94292,6.484e-4,36084,2846.5,30.356,0.14709,358.07,335.2,1.5004,0.27467,28417204,11151,61.637,0.63331,0.63585,0.43015,0.073355,0.12981,0.26216,0.39283,8.8035e-5,0,0,0,0,7.9911e-4,0.011439,15.24,182.41,83.952,-1.9721e-4,NaN,14.584,1005.8,340.14,0.05,0.019363
0.3634,18.941,107.49,290.67,108.09,292.37,1.998,7.8205e-6,1.998,2.2426e-4,11.392,31.398,32.9,-106,9.7954,0.92338,0,1.5302,5.0287e-4,36026,2788.2,30.336,0.14693,359.79,335.16,1.6163,0.31842,3.293e7,10967,83.057,0.63626,0.63789,0.42902,0.074053,0.13318,0.20636,0.33177,-1.8073e-4,0,0,0,0,0.0015661,0.013266,15.24,182.41,83.891,-3.7965e-4,NaN,14.552,1005.2,340.12,0.05,0.019682
0.4134,24.679,122.02,285.37,122.71,287.08,2.6071,1.3471e-5,2.6071,2.9605e-4,12.973,31.278,32.9,-106,9.7954,0.75198,0,2.1786,4.0972e-4,35966,2728.4,30.316,0.14675,361.13,335.12,1.7066,0.36145,37360708,10783,107.42,0.63958,0.64067,0.42776,0.074841,0.13698,0.1669,0.28284,2.3626e-4,0,0,0,0,0.0024641,0.015061,15.24,182.41,83.798,-5.068e-4,NaN,14.515,1004.5,340.09,0.05,0.01998
0.4634,31.137,136.29,279.95,137.07,281.69,3.2951,2.0773e-5,3.2951,3.6121e-4,14.551,31.298,32.9,-106,9.7953,0.63333,0,2.9004,1.4787e-4,35907,2668.6,30.295,0.14658,362.13,335.07,1.7755,0.40376,4.171e7,10599,134.63,0.64326,0.64405,0.42635,0.075717,0.14119,0.14004,0.24508,2.1047e-4,0,0,0,0,0.0035005,0.016824,15.24,182.41,83.671,-4.4642e-4,NaN,14.473,1003.7,340.07,0.05,0.020583
0.5134,38.302,150.29,274.4,151.15,276.22,4.0621,3.0049e-5,4.0621,4.2384e-4,16.138,31.618,32.9,-106,9.7953,0.44898,0,3.6101,0.0011183,35847,2608.8,30.274,0.14641,363.63,335.03,1.8764,0.44523,45965266,10415,164.5,0.64727,0.64767,0.42483,0.076673,0.14577,0.098577,0.18063,3.2701e-4,0,0,0,0,0.0044605,0.018553,15.24,182.41,83.508,-3.592e-4,NaN,14.426,1002.9,340.04,0.05,0.021098
0.5634,46.159,164,268.73,164.96,270.65,4.909,4.1552e-5,4.909,4.8498e-4,17.748,32.187,32.9,-106,9.7953,0.24329,0,4.1778,0.00293,35787,2549,30.254,0.14623,365.32,334.99,1.99,0.4859,50128609,10231,196.95,0.65158,0.6517,0.42319,0.077705,0.15069,0.052989,0.10011,-3.9977e-4,0,0,0,0,0.0050168,0.020248,15.24,182.41,83.313,-4.2366e-4,NaN,14.375,1002,340.01,0.05,0.021771
0.6134,54.695,177.43,262.94,178.49,265,5.8372,5.529e-5,5.8372,5.4271e-4,19.393,32.968,32.9,-106,9.7953,0.015866,0,4.4155,0.055775,35727,2489.2,30.233,0.14606,367.22,334.95,2.1179,0.52572,54196269,10047,231.91,0.65618,0.65618,0.42144,0.078807,0.15593,0.0034245,0.0021111,-3.4058e-4,0,0,0,0,0.0047878,0.02191,15.24,182.41,83.096,-8.5024e-4,NaN,14.319,1001,339.98,0.05,0.02216
0.6634,63.895,190.57,257.05,191.73,259.26,6.8487,7.0596e-5,6.8487,5.906e-4,21.078,33.763,32.9,-106,9.7952,0.17895,0,-4.1719,0.0047326,35667,2429.4,30.212,0.14589,366.35,334.9,2.0632,0.56473,5.817e7,9863.2,269.32,0.66103,0.6611,0.4196,0.079977,0.16146,0.039128,0.084489,-4.3003e-4,0,0,0,0,-0.0037049,0.023537,15.24,182.41,82.879,-0.0013152,NaN,14.26,999.89,339.94,0.05,0.022523
0.7134,73.745,203.41,252.14,204.68,254.49,7.9454,8.6641e-5,7.9454,6.2479e-4,22.8,34.519,32.9,-106,9.7952,0.31988,-3.086e-7,-3.4329,0.001662,35608,2369.7,30.191,0.14572,365.7,334.86,2.0238,0.60291,62049406,9716.6,309.04,0.66613,0.66634,0.41766,0.081208,0.16725,0.070776,0.14502,-3.1583e-4,0,0,0,0,-0.0022014,0.025128,15.24,182.41,82.687,-0.0016544,NaN,14.196,998.74,339.9,0.05,0.022949
0.7634,84.23,216,250.26,217.39,252.75,9.129,1.0254e-4,9.129,6.4359e-4,24.553,35.368,32.9,-106,9.7952,0.41012,-8.215e-7,-2.2406,0.0014285,35551,2312.7,30.172,0.14555,365.48,334.82,2.0117,0.64038,65844950,9681.5,351.08,0.67146,0.6718,0.41564,0.082502,0.17331,0.091585,0.18547,2.0846e-4,0,0,0,0,-8.3148e-4,0.026691,15.24,182.41,82.544,-0.0019103,NaN,14.128,997.51,339.86,0.05,0.023507
0.8134,95.342,228.49,248.54,230.01,251.1,10.401,1.1749e-4,10.401,6.4722e-4,26.337,35.765,32.9,-106,9.7951,0.44019,-1.0366e-6,-0.67208,-3.1254e-4,35498,2260,30.153,0.1454,365.72,334.78,2.0301,0.67758,69601231,9653.9,395.85,0.67707,0.67748,0.41352,0.083869,0.17969,0.098915,0.2007,3.7069e-4,0,0,0,0,-6.6836e-5,0.028242,15.24,182.41,82.47,-0.0023177,NaN,14.055,996.2,339.82,0.05,0.024067
0.8634,107.08,240.9,246.82,242.54,249.36,11.763,1.3069e-4,11.763,6.3656e-4,28.124,35.477,32.9,-106,9.7951,0.39127,-9.0808e-7,1.0696,-0.002392,35446,2208.6,30.135,0.14525,366.55,334.74,2.0873,0.71454,73321123,9626.2,443.38,0.68298,0.6833,0.41129,0.085313,0.18637,0.088125,0.18423,3.6346e-4,0,0,0,0,1.5226e-4,0.029783,15.24,182.41,82.479,-0.0028901,NaN,13.979,994.83,339.77,0.05,0.024396
0.9134,119.43,253.23,245.12,254.98,247.53,13.213,1.4077e-4,13.213,6.1042e-4,29.878,34.42,32.9,-106,9.7951,0.2666,-4.5297e-7,2.6429,-0.0030385,35395,2157.1,30.118,0.1451,367.96,334.7,2.1819,0.75125,77003576,9598.5,493.69,0.68916,0.68931,0.40896,0.08683,0.19337,0.059961,0.12971,4.6842e-4,0,0,0,0,8.4127e-4,0.031313,15.24,182.41,82.574,-0.0029019,NaN,13.899,993.38,339.72,0.05,0.024777
0.9634,132.4,265.47,243.42,267.34,245.6,14.749,1.48e-4,14.749,5.7493e-4,31.562,32.696,32.9,-106,9.795,0.087875,-8.8898e-7,3.6111,-0.011083,35344,2105.7,30.1,0.14495,369.79,334.67,2.3048,0.78771,80647575,9570.8,546.91,0.69561,0.69563,0.40652,0.088422,0.20066,0.019685,0.044352,2.2438e-5,0,0,0,0,0.001429,0.032831,15.24,182.41,82.734,-0.0023572,NaN,13.814,991.86,339.67,0.05,0.025627
1.0134,145.98,277.62,241.66,279.59,243.59,16.367,1.5404e-4,16.367,5.3923e-4,33.148,30.589,32.9,-106,9.795,0.11267,-8.4354e-7,-3.5017,-0.0087407,35292,2054.2,30.082,0.14481,370.19,334.63,2.3337,0.82394,84253866,9543.1,603.19,0.70234,0.70236,0.40399,0.090088,0.20825,0.025426,0.060804,1.3568e-4,0,0,0,0,-0.0012285,0.034337,15.24,182.41,82.917,-0.0013148,NaN,13.726,990.27,339.62,0.05,0.025962
1.0634,160.16,289.68,239.77,291.74,241.48,18.062,1.6213e-4,18.062,5.1431e-4,34.631,28.706,32.9,-106,9.7949,0.26632,-1.2692e-6,-2.1281,-0.0018301,35241,2002.8,30.064,0.14466,369.71,334.59,2.3042,0.85989,87819091,9515.5,662.51,0.70932,0.70948,0.40137,0.091826,0.21612,0.060984,0.14048,3.2206e-4,0,0,0,0,-4.1674e-4,0.03583,15.24,182.41,83.062,-2.5483e-4,NaN,13.634,988.6,339.56,0.05,0.027217
1.1134,174.94,301.64,237.68,303.79,239.3,19.829,1.7592e-4,19.829,5.0832e-4,36.042,27.797,32.9,-106,9.7949,0.30661,-7.6864e-7,0.098905,-4.0381e-4,35189,1951.3,30.046,0.14451,370.05,334.55,2.3295,0.89553,91337684,9487.8,724.67,0.71655,0.71676,0.39866,0.093634,0.22426,0.070833,0.16503,4.5185e-4,0,0,0,0,8.3018e-7,0.037309,15.24,182.41,83.115,2.1196e-4,NaN,13.538,986.87,339.5,0.05,0.027522
1.1634,190.32,313.5,235.47,315.73,237.15,21.666,1.9659e-4,21.666,5.1988e-4,37.439,28.177,32.9,-106,9.7948,0.23223,-1.2337e-6,2.4165,0.0020001,35138,1899.8,30.028,0.14436,371.23,334.51,2.4089,0.93087,94811099,9460.1,785.14,0.71992,0.72004,0.39176,0.095511,0.23265,0.053819,0.12885,-3.1324e-4,0,0,0,0,4.5881e-4,0.038775,15.24,182.41,83.05,2.5146e-4,NaN,13.438,985.06,339.44,0.05,0.027868
1.2134,206.29,325.24,233.07,327.55,234.96,23.574,2.2351e-4,23.574,5.4324e-4,38.885,29.707,32.9,-106,9.7948,0.071568,-7.6577e-7,3.862,0.01117,35086,1848.4,30.01,0.14421,373,334.48,2.5278,0.96592,98238789,9432.4,847.32,0.72308,0.72309,0.38433,0.097457,0.24129,0.016563,0.040329,3.0784e-4,0,0,0,0,0.0010888,0.040228,15.24,182.41,82.888,-6.8224e-4,NaN,13.334,983.19,339.38,0.05,0.028186
1.2634,222.84,336.85,230.5,339.27,232.66,25.556,2.5418e-4,25.556,5.6986e-4,40.423,31.668,32.9,-106,9.7947,0.10659,-1.1338e-6,-3.619,0.0074625,35035,1796.9,29.992,0.14406,373.33,334.44,2.5521,1.0006,1.0162e8,9404.8,913.15,0.72754,0.72756,0.37697,0.10073,0.24984,0.024869,0.064476,-4.0403e-4,0,0,0,0,-8.9126e-4,0.041668,15.24,182.41,82.693,-7.2594e-4,NaN,13.227,981.25,339.31,0.05,0.028713
1.3134,239.97,348.31,227,350.84,229.37,27.618,2.8805e-4,27.618,5.9759e-4,42.045,32.899,32.9,-106,9.7947,0.21941,0,-1.6844,0.0041267,34983,1745.5,29.974,0.14391,373.03,334.4,2.5349,1.0349,1.0494e8,9377.1,1013.5,0.75634,0.75645,0.3697,0.14509,0.24156,0.051755,0.1314,1.7541e-4,0,0,0,0,-1.8055e-4,0.04309,15.24,182.41,82.555,7.742e-4,NaN,13.115,979.24,339.25,0.05,0.029222
1.3634,257.67,359.62,224.36,362.26,226.73,29.761,3.3073e-4,29.761,6.3672e-4,43.696,32.722,32.9,-106,9.7946,0.21614,0,1.0893,0.0089758,34932,1694,29.956,0.14377,373.44,334.36,2.5643,1.0688,1.082e8,9349.4,1090.5,0.76469,0.7648,0.36252,0.16827,0.23391,0.051151,0.13086,4.8046e-4,0,0,0,0,7.0835e-5,0.044495,15.24,182.41,82.54,0.002962,NaN,13,977.17,339.18,0.05,0.029587
1.4134,275.93,370.81,222.54,373.57,224.66,31.986,3.9093e-4,31.986,7.0026e-4,45.293,30.762,32.9,-106,9.7946,0.082727,4.7624e-7,3.1762,0.0089327,34880,1642.6,29.938,0.14362,374.63,334.32,2.645,1.1024,1.1141e8,9321.7,1146.8,0.75768,0.75769,0.35563,0.17526,0.22679,0.019471,0.050513,2.5534e-4,0,0,0,0,5.6638e-4,0.045885,15.24,182.41,82.653,0.0038087,NaN,12.881,975.02,339.11,0.05,0.030041
1.4634,294.75,381.93,221.24,384.78,223,34.288,4.7118e-4,34.288,7.8734e-4,46.761,27.935,32.9,-106,9.7945,0.10436,0,-2.918,0.0034038,34829,1591.1,29.92,0.14347,374.58,334.28,2.6442,1.1357,1.1458e8,9294.1,1188.4,0.74142,0.74145,0.35175,0.16955,0.22013,0.024568,0.065852,2.4752e-4,0,0,0,0,-4.5056e-4,0.047263,15.24,182.41,82.816,0.0032331,NaN,12.759,972.82,339.03,0.05,0.030625
1.5134,314.12,392.99,220.17,395.93,221.75,36.66,5.6978e-4,36.66,8.905e-4,48.116,26.418,32.9,-106,9.7945,0.18542,4.9141e-7,-0.59145,0.0017459,34778,1539.7,29.902,0.14332,373.94,334.24,2.6051,1.1688,1.1772e8,9266.4,1216,0.71787,0.71795,0.34787,0.15612,0.21389,0.043686,0.1139,-4.9539e-4,0,0,0,0,-1.7484e-5,0.048632,15.24,182.41,82.908,0.003188,NaN,12.633,970.54,338.95,0.05,0.031056
1.5634,334.05,404,219.1,407.01,220.77,39.099,6.828e-4,39.099,0.0010006,49.447,27.036,32.9,-106,9.7944,0.12798,2.4845e-6,1.9988,-0.0031287,34726,1488.2,29.884,0.14317,374.09,334.2,2.6175,1.2018,1.2082e8,9238.7,1234.5,0.69105,0.69109,0.34399,0.13905,0.20802,0.029873,0.078334,-6.4989e-5,0,0,0,0,1.8896e-4,0.049993,15.24,182.41,82.87,0.0028218,NaN,12.504,968.21,338.88,0.05,0.031283
1.6134,354.52,414.95,217.93,418.06,219.87,41.606,8.0977e-4,41.606,0.0011151,50.853,29.128,32.9,-106,9.7943,0.012342,3.1331e-6,-2.9467,-0.015605,34675,1436.8,29.866,0.14302,374.46,334.16,2.6439,1.2347,1.2388e8,9211.3,1250.1,0.66476,0.66476,0.3401,0.12218,0.20249,0.0028359,0.0081447,4.2426e-5,0,0,0,0,-3.8931e-4,0.05135,15.24,182.41,82.737,0.0035148,NaN,12.371,965.81,338.8,0.05,0.031478
1.6634,375.54,425.84,216.83,429.05,219.02,44.186,9.5285e-4,44.186,0.0012355,52.361,30.881,32.9,-106,9.7943,0.11839,1.7022e-6,-1.7026,4.4106e-4,34623,1385.6,29.848,0.14287,373.04,334.13,2.5538,1.2674,1.2693e8,9190.5,1271.1,0.64303,0.64305,0.33621,0.10957,0.19725,0.027027,0.06903,-5.6145e-6,0,0,0,0,-1.234e-4,0.052701,15.24,182.41,82.614,0.0043524,NaN,12.234,963.34,338.71,0.05,0.031659
1.7134,397.11,436.67,215.66,439.99,217.87,46.843,0.0011153,46.843,0.0013641,53.915,30.924,32.9,-106,9.7942,0.11965,2.9816e-6,0.44185,0.0011146,34573,1335.4,29.831,0.14273,372.15,334.09,2.4973,1.3001,1.2993e8,9172.7,1304.8,0.62902,0.62904,0.33232,0.1044,0.1923,0.026894,0.067638,4.3512e-4,0,0,0,0,7.9022e-6,0.054046,15.24,182.41,82.583,0.0047088,NaN,12.094,960.81,338.63,0.05,0.031963
1.7634,419.21,447.44,214.37,450.86,216.37,49.577,0.0012992,49.577,0.0015015,55.431,29.39,32.9,-106,9.7941,0.037133,1.0321e-6,1.8897,-0.0021415,34524,1286,29.813,0.14259,371.61,334.05,2.4645,1.3325,1.3291e8,9155,1349.3,0.62089,0.62089,0.32844,0.10483,0.18761,0.0081505,0.019616,-2.9743e-4,0,0,0,0,1.3765e-4,0.055383,15.24,182.41,82.647,0.0039279,NaN,11.95,958.22,338.54,0.05,0.032191
1.8134,441.85,458.15,213.14,461.66,214.89,52.385,0.001499,52.385,0.0016395,56.848,27.317,32.9,-106,9.7941,0.071973,1.7593e-6,-1.5273,-0.0016186,34475,1236.7,29.796,0.14244,370.01,334.01,2.3618,1.3648,1.3584e8,9137.3,1393.7,0.613,0.61301,0.32459,0.10524,0.18317,0.015489,0.036497,3.6009e-4,0,0,0,0,-8.5756e-5,0.05671,15.24,182.41,82.74,0.0034072,NaN,11.803,955.56,338.45,0.05,0.032442
1.8634,465.02,468.79,211.77,472.39,213.41,55.261,0.0017107,55.261,0.0017737,58.187,26.407,32.9,-106,9.794,0.1104,1.4834e-6,0.1078,-0.0028304,34425,1187.3,29.779,0.1423,368.14,333.97,2.2422,1.3969,1.3874e8,9119.5,1437.8,0.60536,0.60538,0.32076,0.10563,0.17897,0.02324,0.051778,2.0275e-4,0,0,0,0,4.0809e-7,0.058028,15.24,182.41,82.777,0.0040264,NaN,11.652,952.93,338.36,0.05,0.032828
1.9134,488.73,479.36,210.21,483.04,211.94,58.203,0.0019395,58.203,0.0019092,59.52,27.031,32.9,-106,9.7939,0.065652,4.2658e-6,1.619,-0.0037168,34376,1137.9,29.761,0.14216,366.65,333.93,2.147,1.4288,1.4161e8,9101.8,1481.6,0.59793,0.59793,0.31695,0.106,0.17497,0.013412,0.028498,1.4847e-4,0,0,0,0,8.8033e-5,0.059336,15.24,182.41,82.731,0.0053166,NaN,11.498,950.28,338.27,0.05,0.033221
1.9634,512.96,489.85,208.56,493.62,210.49,61.214,0.0021872,61.214,0.0020472,60.909,28.422,32.9,-106,9.7938,0.017294,3.5663e-6,-1.9867,-0.0020114,34326,1088.6,29.744,0.14202,365,333.9,2.0406,1.4605,1.4445e8,9084,1525,0.5907,0.5907,0.31317,0.10635,0.17117,0.0034204,0.0067486,-3.2587e-4,0,0,0,0,-1.2693e-4,0.060636,15.24,182.41,82.635,0.0042778,NaN,11.341,947.57,338.17,0.05,0.033619
2.0134,537.71,500.25,206.96,504.12,209.04,64.295,0.0024515,64.295,0.0021846,62.361,29.448,32.9,-106,9.7938,0.076753,3.5133e-6,-1.2523,0.006951,34277,1039.2,29.727,0.14187,362.39,333.86,1.8725,1.492,1.4724e8,9066.3,1568,0.58366,0.58367,0.30943,0.10668,0.16756,0.014789,0.028039,-2.9317e-4,0,0,0,0,-4.835e-5,0.061928,15.24,182.41,82.551,0.0039623,NaN,11.18,944.81,338.07,0.05,0.034196
2.0634,562.98,510.58,205.48,514.56,207.6,67.45,0.0027313,67.45,0.0023201,63.843,29.586,32.9,-106,9.7937,0.08919,4.1209e-6,-0.053415,-0.0023402,34228,989.82,29.709,0.14173,360.24,333.82,1.7336,1.5234,1.5e8,9048.5,1610.5,0.57681,0.57683,0.30572,0.10699,0.16411,0.016729,0.028851,1.3047e-4,0,0,0,0,-8.4438e-8,0.063211,15.24,182.41,82.518,0.0054042,NaN,11.016,941.99,337.97,0.05,0.034643
2.1134,588.77,520.84,204.15,524.92,206.16,70.679,0.0030304,70.679,0.0024566,65.306,28.68,32.9,-106,9.7936,0.047178,6.0998e-6,0.87678,-0.0025297,34178,940.46,29.692,0.14159,358.45,333.78,1.6188,1.5545,1.5271e8,9030.8,1652.5,0.57014,0.57015,0.30204,0.10728,0.16082,0.0085823,0.014259,3.1773e-4,0,0,0,0,2.1861e-5,0.064484,15.24,182.41,82.542,0.0047207,NaN,10.848,939.1,337.87,0.05,0.035205
2.1634,615.06,531.03,202.9,535.21,204.72,73.98,0.003348,73.98,0.002593,66.707,27.277,32.9,-106,9.7935,0.019726,6.4946e-6,-1.051,-0.017174,34129,891.09,29.674,0.14145,356.44,333.74,1.4898,1.5855,1.5538e8,9013,1694,0.56364,0.56364,0.2984,0.10755,0.15768,0.0034815,0.0050504,3.4769e-4,0,0,0,0,-3.0215e-5,0.065749,15.24,182.41,82.593,0.0016798,NaN,10.677,936.17,337.77,0.05,0.035623
2.2134,641.87,541.16,201.62,545.42,203.31,77.349,0.0036659,77.349,0.0027155,68.043,26.18,32.9,-106,9.7935,0.068081,7.1089e-6,-0.52517,0.0021958,34080,841.73,29.657,0.1413,354.03,333.7,1.3336,1.6163,1.5802e8,8995.3,1735.1,0.55729,0.5573,0.2948,0.10781,0.15468,0.011759,0.015833,-1.808e-4,0,0,0,0,-7.2645e-6,0.067005,15.24,182.41,82.634,-3.6332e-4,NaN,10.503,933.17,337.66,0.05,0.036018
2.2634,669.18,551.23,200.23,555.57,201.91,80.783,0.003966,80.783,0.0028129,69.345,25.996,32.9,-106,9.7934,0.065696,7.0223e-6,0.20249,-4.1911e-4,34030,792.36,29.639,0.14116,352.15,333.66,1.2134,1.6468,1.6061e8,8977.6,1775.5,0.55111,0.55112,0.29125,0.10805,0.15181,0.011089,0.013073,4.2022e-4,0,0,0,0,1.041e-6,0.068252,15.24,182.41,82.642,-0.001622,NaN,10.325,930.12,337.56,0.05,0.036478
2.3134,696.99,561.22,198.76,565.65,200.53,84.284,0.0042504,84.284,0.0028894,70.662,26.598,32.9,-106,9.7933,0.02133,6.7658e-6,0.60492,0.0097472,33981,743,29.622,0.14102,350.53,333.62,1.1092,1.6771,1.6315e8,8959.8,1815.2,0.54509,0.54509,0.28774,0.10828,0.14907,0.0035055,0.0042089,-3.3687e-4,0,0,0,0,8.9628e-6,0.069491,15.24,182.41,82.62,9.3576e-4,NaN,10.145,927.01,337.45,0.05,0.036863
2.3634,725.3,571.14,189.82,575.66,191.6,87.85,0.004529,87.85,0.0029538,72.007,26.053,32.9,-106,9.7932,0.0093918,6.6865e-6,-0.6354,0.027916,33932,693.63,29.605,0.14088,348.66,333.58,0.98921,1.7073,1.6566e8,8685.6,1854.4,0.53919,0.53919,0.28427,0.10849,0.14643,0.0015076,0.0014191,4.4638e-4,0,0,0,0,-9.5484e-6,0.070721,15.24,182.41,82.588,0.0015115,NaN,9.9606,923.85,337.34,0.05,0.037211
2.4134,754.09,580.61,166,585.22,167.63,91.483,0.0048093,91.483,0.0030121,73.316,23.331,32.9,-106,9.7931,0.026438,6.2629e-6,-0.50783,0.011905,33885,647.08,29.588,0.14074,346.87,333.55,0.87413,1.7363,1.6803e8,7901.2,1891.5,0.53363,0.53363,0.28096,0.10869,0.14399,0.0041712,0.0039181,3.5253e-4,0,0,0,0,-5.9014e-6,0.071897,15.24,182.41,82.559,0.0024004,NaN,9.7734,920.63,337.22,0.05,0.037676
2.4634,783.33,588.9,141.86,593.59,143.35,95.178,0.0050927,95.178,0.0030657,74.491,20.591,32.9,-106,9.793,0.04758,6.4607e-6,-0.26465,-0.0018737,33842,604.01,29.573,0.14062,345.2,333.51,0.76664,1.7616,1.7002e8,7102.7,1922.8,0.52884,0.52885,0.27808,0.10885,0.14191,0.0073961,0.0054697,-1.5733e-4,0,0,0,0,-1.5579e-6,0.072925,15.24,182.41,82.539,0.0023953,NaN,9.5834,917.37,337.11,0.05,0.038076
2.5134,812.95,595.98,123.18,600.75,124.54,98.929,0.0053853,98.929,0.003119,75.527,18.327,32.9,-106,9.7929,0.057263,6.8223e-6,0.073643,0.005869,33799,561.6,29.558,0.1405,343.78,333.48,0.67615,1.7834,1.7165e8,6486,1948.5,0.52478,0.52479,0.27562,0.10898,0.14018,0.0087805,0.0063517,-2.4224e-4,0,0,0,0,1.1779e-7,0.073805,15.24,182.41,82.534,0.0024836,NaN,9.3908,914.06,336.99,0.05,0.038483
2.5634,842.9,602.13,111.65,606.96,112.85,102.73,0.0056896,102.73,0.0031733,76.433,16.385,32.9,-106,9.7928,0.033142,6.1027e-6,0.31126,0.0028433,33763,524.68,29.545,0.14039,342.79,333.45,0.61303,1.8025,1.7301e8,6107.9,1969.8,0.52127,0.52127,0.27348,0.1091,0.13869,0.0050075,0.0033809,-2.1326e-4,0,0,0,0,2.0613e-6,0.07457,15.24,182.41,82.545,0.0052784,NaN,9.1961,910.71,336.87,0.05,0.038817
2.6134,873.15,607.71,100.21,612.6,101.23,106.57,0.0060117,106.57,0.0032321,77.236,14.309,32.9,-106,9.7927,0.0013802,5.9693e-6,0.41226,-0.0056074,33732,493.67,29.534,0.1403,342.11,333.42,0.56986,1.8199,1.7419e8,5730.8,1988.3,0.5181,0.5181,0.27154,0.10919,0.13737,2.0591e-4,3.0878e-4,-1.8841e-4,0,0,0,0,3.5498e-6,0.075262,15.24,182.41,82.563,0.0048622,NaN,8.9995,907.33,336.75,0.05,0.039183
2.6634,903.66,612.71,88.798,617.65,89.67,110.45,0.0063484,110.45,0.0032933,77.94,12.472,32.9,-106,9.7926,0.016735,5.9372e-6,-0.36226,-0.0043822,33701,463.07,29.523,0.14021,341.13,333.4,0.5076,1.8355,1.7518e8,5353.8,2004,0.51528,0.51528,0.2698,0.10928,0.1362,0.0024778,8.8227e-4,2.8965e-4,0,0,0,0,-2.6965e-6,0.075883,15.24,182.41,82.583,0.0025824,NaN,8.8012,903.92,336.63,0.05,0.03954
2.7134,934.41,617.15,77.415,622.13,78.177,114.36,0.0066928,114.36,0.0033531,78.561,10.888,32.9,-106,9.7926,0.021086,6.0017e-6,-0.27532,-0.0056953,33670,432.48,29.512,0.14012,340.33,333.37,0.45633,1.8494,1.76e8,4976.7,2017,0.51279,0.51279,0.26826,0.10936,0.13518,0.0030982,9.3225e-4,8.3227e-5,0,0,0,0,-1.5352e-6,0.076434,15.24,182.41,82.599,0.0040556,NaN,8.6014,900.49,336.51,0.05,0.040567
2.7634,965.36,621.01,67.756,626.03,68.402,118.3,0.0070476,118.3,0.0034132,79.099,9.3835,32.9,-106,9.7925,0.03444,5.9179e-6,-0.16902,-0.0016794,33640,401.89,29.501,0.14003,339.53,333.35,0.4057,1.8617,1.7666e8,4655.8,2027.5,0.51061,0.51061,0.2669,0.10942,0.13428,0.0050302,0.0021102,3.9669e-4,0,0,0,0,-5.7138e-7,0.076914,15.24,182.41,82.611,0.0044971,NaN,8.4001,897.11,336.39,0.05,0.041728
2.8134,996.5,624.4,67.863,629.45,68.486,122.27,0.0074218,122.27,0.0034779,79.562,9.2175,32.9,-106,9.7924,0.04423,6.2373e-6,-0.025899,0.0011012,33610,372.53,29.491,0.13995,338.83,333.33,0.36153,1.8726,1.772e8,4664.8,2035.9,0.50869,0.50869,0.26571,0.10948,0.13351,0.0064249,0.0018645,-2.6878e-4,0,0,0,0,-1.3271e-8,0.077334,15.24,182.41,82.616,0.005461,NaN,8.1978,893.8,336.27,0.05,0.043206
2.8634,1027.8,627.79,69.534,632.87,70.173,126.26,0.0078079,126.26,0.0035432,80.024,9.4436,32.9,-106,9.7923,0.043704,5.9066e-6,0.089958,0.0059007,33583,345.6,29.481,0.13987,338.21,333.3,0.32193,1.8834,1.7773e8,4727.6,2044.2,0.50679,0.50679,0.26452,0.10953,0.13274,0.0063077,0.0017743,1.732e-5,0,0,0,0,1.5839e-7,0.077754,15.24,182.41,82.614,0.0044797,NaN,7.9943,890.47,336.14,0.05,0.043608
2.9134,1059.3,631.26,71.215,636.37,71.849,130.27,0.0082086,130.27,0.0036103,80.491,9.5203,32.9,-106,9.7922,0.052233,6.0977e-6,0.2249,0.0071474,33558,319.87,29.472,0.1398,337.49,333.28,0.27584,1.8946,1.7828e8,4790.5,2052.9,0.50483,0.50484,0.2633,0.10958,0.13195,0.0074947,0.0022279,3.353e-4,0,0,0,0,9.7904e-7,0.078185,15.24,182.41,82.606,0.0022811,NaN,7.7897,887.12,336.02,0.05,0.044022
2.9634,1090.9,634.82,72.056,639.96,72.711,134.31,0.0086081,134.31,0.0036722,80.968,9.7394,32.9,-106,9.7921,0.047018,6.3539e-6,0.34654,-0.0041828,33532,294.14,29.463,0.13972,336.9,333.26,0.23892,1.906,1.7884e8,4826.1,2061.7,0.50285,0.50286,0.26205,0.10964,0.13116,0.006701,0.0016085,-1.1612e-4,0,0,0,0,2.2984e-6,0.078626,15.24,182.41,82.592,0.0035471,NaN,7.584,883.75,335.89,0.05,0.047186
3.0134,1122.8,638.41,66.581,643.59,67.239,138.37,0.0090099,138.37,0.0037308,81.463,9.3826,32.9,-106,9.792,0.028236,6.481e-6,0.41303,-0.018821,33507,269.03,29.454,0.13965,336.46,333.24,0.21133,1.9176,1.794e8,4649.3,2070.4,0.50087,0.50087,0.2608,0.10969,0.13037,0.0039937,5.4457e-4,1.0706e-4,0,0,0,0,3.2283e-6,0.079072,15.24,182.41,82.573,0.007697,NaN,7.3771,880.37,335.77,0.05,0.04784
3.0634,1154.8,641.74,59.794,646.95,60.453,142.45,0.0094424,142.45,0.0037978,81.942,8.8998,32.9,-106,9.7919,0.0069076,6.5466e-6,0.44939,-0.04436,33483,245.3,29.446,0.13958,336.08,333.22,0.18728,1.9283,1.7988e8,4427.5,2077.9,0.49904,0.49904,0.25964,0.10974,0.12965,9.6971e-4,-3.153e-4,1.3936e-4,0,0,0,0,3.7822e-6,0.079485,15.24,182.41,82.551,0.010866,NaN,7.169,876.96,335.64,0.05,0.048234
3.1134,1186.9,644.73,53.059,649.97,53.703,146.56,0.0099222,146.56,0.0038789,82.394,8.2903,32.9,-106,9.7918,0.0071494,6.5437e-6,-0.42705,-0.037551,33460,222.36,29.437,0.13952,335.57,333.2,0.15509,1.938,1.8025e8,4205.7,2083.8,0.49738,0.49738,0.25859,0.10979,0.129,9.9864e-4,5.1519e-4,-2.0376e-5,0,0,0,0,-3.3838e-6,0.079856,15.24,182.41,82.529,0.010622,NaN,6.96,873.54,335.52,0.05,0.048664
3.1634,1219.2,647.38,46.373,652.65,46.99,150.69,0.010442,150.69,0.0039702,82.812,7.5853,32.9,-106,9.7917,0.015663,6.4957e-6,-0.4146,-0.003752,33437,199.41,29.429,0.13945,335.04,333.18,0.12174,1.9468,1.8053e8,3983.9,2088.1,0.4959,0.4959,0.25765,0.10983,0.12842,0.0021797,3.95e-4,5.3752e-5,0,0,0,0,-3.1631e-6,0.080187,15.24,182.41,82.508,0.0087984,NaN,6.75,870.11,335.39,0.05,0.049196
3.2134,1251.7,649.69,39.711,655,40.323,154.84,0.010989,154.84,0.0040661,83.198,6.9965,32.9,-106,9.7916,0.03087,6.4428e-6,-0.38479,-3.1003e-4,33414,176.47,29.421,0.13938,334.51,333.16,0.088313,1.9545,1.807e8,3762.1,2090.9,0.49459,0.49459,0.25682,0.10986,0.12791,0.0042848,2.0065e-4,7.6107e-5,0,0,0,0,-2.7051e-6,0.080476,15.24,182.41,82.488,0.0092374,NaN,6.5392,866.66,335.26,0.05,0.049594
3.2634,1284.2,651.68,32.242,657.01,32.835,159.01,0.011563,159.01,0.0041664,83.553,6.213,32.9,-106,9.7915,0.041419,6.4259e-6,-0.36325,-0.0075209,33391,153.52,29.413,0.13932,334.07,333.15,0.060492,1.9613,1.8078e8,3511.5,2092.2,0.49346,0.49346,0.2561,0.10989,0.12747,0.0057346,8.0884e-4,3.6995e-4,0,0,0,0,-2.396e-6,0.080724,15.24,182.41,82.469,0.007242,NaN,6.3278,863.2,335.13,0.05,0.049903
3.3134,1316.8,653.29,22.114,658.65,22.684,163.2,0.01215,163.2,0.0042656,83.869,5.0513,32.9,-106,9.7914,0.05086,6.3606e-6,-0.33337,-0.0039749,33372,133.86,29.406,0.13926,333.69,333.13,0.036854,1.9669,1.8075e8,3170.1,2091.7,0.49251,0.49252,0.2555,0.10991,0.1271,0.0070274,-6.6827e-5,5.7243e-5,0,0,0,0,-2.008e-6,0.080926,15.24,182.41,82.452,0.0035476,NaN,6.1157,859.73,335.01,0.05,0.050197
3.3634,1349.5,654.4,11.842,659.79,12.451,167.4,0.012728,167.4,0.0043563,84.126,3.8474,32.9,-106,9.7913,0.059417,6.3257e-6,-0.32752,2.0762e-4,33357,119.07,29.401,0.13922,333.4,333.12,0.018685,1.971,1.8057e8,2822,2089.1,0.49183,0.49183,0.25506,0.10993,0.12684,0.0081987,3.7203e-4,-2.2227e-4,0,0,0,0,-1.9316e-6,0.081066,15.24,182.41,82.435,0.0014082,NaN,5.9032,856.25,334.88,0.05,0.050754
3.4134,1382.2,655,1.6338,660.4,3.0622,171.61,0.013286,171.61,0.0044358,84.321,2.59,32.9,-106,9.7912,0.064905,6.2464e-6,-0.31189,-0.0018708,33344,105.86,29.396,0.13918,333.22,333.11,0.0073703,1.9736,1.8025e8,2474,2084.2,0.49139,0.4914,0.25478,0.10994,0.12667,0.0089486,3.9107e-5,-1.5249e-4,0,0,0,0,-1.7483e-6,0.081142,15.24,182.41,82.419,3.2318e-4,NaN,5.6904,852.77,334.75,0.05,0.051375
3.4634,1415,655.08,-8.52,660.5,8.6276,175.83,0.013817,175.83,0.0045024,84.454,1.3584,32.9,-106,9.7911,0.071832,6.2337e-6,-0.32814,0.012089,33331,92.65,29.391,0.13914,333.11,333.1,8.0967e-4,1.9747,1.7979e8,2125.9,2077.2,0.49122,0.49122,0.25467,0.10995,0.1266,0.0099046,1.3229e-4,1.7297e-5,0,0,0,0,-1.9346e-6,0.081156,15.24,182.41,82.403,0.0010625,NaN,5.4775,849.28,334.62,0.05,0.051745
3.5134,1447.7,654.66,-18.612,660.1,18.612,180.05,0.014332,180.05,0.0045607,84.526,0.085119,32.9,-106,9.791,0.076358,6.208e-6,-0.31836,0.011614,33317,79.439,29.387,0.1391,333.1,333.08,8.5966e-4,1.9743,1.7918e8,1777.8,2068.1,0.49129,0.4913,0.25471,0.10995,0.12663,0.010536,-4.223e-4,2.4052e-4,0,0,0,0,-1.8232e-6,0.081106,15.24,182.41,82.387,0.0046391,NaN,5.2647,845.8,334.49,0.05,0.05216
3.5634,1480.4,653.74,-28.64,659.18,28.666,184.28,0.014846,184.28,0.004616,84.531,1.222,32.9,-106,9.7909,0.078891,6.2012e-6,-0.32278,0.020545,33304,66.229,29.382,0.13906,333.18,333.07,0.0072943,1.9723,1.7848e8,1430.3,2057.2,0.49162,0.49163,0.25492,0.10994,0.12676,0.010899,-1.4032e-4,1.1139e-4,0,0,0,0,-1.8794e-6,0.080995,15.24,182.41,82.371,0.010967,NaN,5.0521,842.48,334.36,0.05,0.052574
3.6134,1513.1,652.32,-34.377,657.76,34.432,188.5,0.0154,188.5,0.0046809,84.473,1.9518,32.9,-106,9.7908,0.081902,6.1975e-6,-0.31594,0.011903,33291,53.333,29.377,0.13903,333.35,333.06,0.018833,1.9688,1.7764e8,1225.1,2044.3,0.4922,0.49221,0.25529,0.10992,0.12698,0.011339,-1.4403e-4,-1.1686e-4,0,0,0,0,-1.8083e-6,0.080821,15.24,182.41,82.355,0.017659,NaN,4.8399,839.17,334.23,0.05,0.05296
3.6634,1545.7,650.61,-36.756,656.06,36.83,192.72,0.016029,192.72,0.0047653,84.375,2.3464,32.9,-106,9.7907,0.078518,6.2181e-6,-0.30463,0.020535,33283,45.304,29.374,0.139,333.61,333.06,0.036239,1.9645,1.7672e8,1131.1,2030.3,0.49292,0.49293,0.25575,0.1099,0.12726,0.010891,4.0081e-4,2.2646e-4,0,0,0,0,-1.6899e-6,0.080612,15.24,182.41,82.339,0.027019,NaN,4.6281,835.88,334.1,0.05,0.053328
3.7134,1578.2,648.78,-39.131,654.23,39.22,196.94,0.016773,196.94,0.0048799,84.26,2.6398,32.9,-106,9.7906,0.080989,6.302e-6,-0.27629,0.010186,33280,41.828,29.373,0.13899,333.84,333.05,0.051778,1.9598,1.7578e8,1037.1,2015.8,0.49371,0.49372,0.25626,0.10988,0.12756,0.011264,5.5442e-4,1.3856e-4,0,0,0,0,-1.3979e-6,0.080388,15.24,182.41,82.325,0.036893,NaN,4.417,832.59,333.98,0.05,0.053744
3.7634,1610.5,646.84,-41.486,652.28,41.594,201.15,0.017677,201.15,0.005035,84.129,2.9958,32.9,-106,9.7905,0.079703,6.4012e-6,-0.23172,0.0089261,33276,38.352,29.372,0.13898,334.12,333.05,0.070363,1.9547,1.748e8,943.1,2001,0.49456,0.49457,0.2568,0.10986,0.1279,0.011113,9.315e-4,-3.3736e-4,0,0,0,0,-9.8911e-7,0.08015,15.24,182.41,82.312,0.044301,NaN,4.2064,829.31,333.85,0.05,0.054127
3.8134,1642.8,644.77,-43.821,650.22,43.953,205.35,0.018771,205.35,0.0052374,83.977,3.4142,32.9,-106,9.7904,0.074626,6.2717e-6,-0.19095,0.021088,33273,34.875,29.371,0.13897,334.45,333.05,0.091991,1.9493,1.738e8,849.09,1985.7,0.49547,0.49548,0.25738,0.10984,0.12825,0.01043,0.0013712,3.2827e-4,0,0,0,0,-6.7595e-7,0.079896,15.24,182.41,82.302,0.054434,NaN,3.9966,826.04,333.72,0.05,0.054539
3.8634,1675,642.59,-46.157,648.04,46.307,209.55,0.020086,209.55,0.0054921,83.809,3.7242,32.9,-106,9.7903,0.075835,6.0944e-6,-0.12872,0.014121,33269,31.399,29.369,0.13896,334.75,333.04,0.11173,1.9435,1.7277e8,755.08,1970,0.49645,0.49646,0.258,0.10981,0.12863,0.010632,0.0010586,4.7268e-4,0,0,0,0,-3.0922e-7,0.079628,15.24,182.41,82.294,0.064344,NaN,3.7874,822.78,333.59,0.05,0.054931
3.9134,1707.1,640.3,-48.462,645.74,48.642,213.73,0.021653,213.73,0.0058046,83.622,4.1843,32.9,-106,9.7902,0.067811,6.0682e-6,-0.035986,0.016093,33266,27.922,29.368,0.13895,335.13,333.04,0.13715,1.9373,1.7171e8,661.07,1953.9,0.49749,0.4975,0.25867,0.10979,0.12904,0.0095298,0.0014154,-1.4703e-4,0,0,0,0,-2.434e-8,0.079346,15.24,182.41,82.29,0.071816,NaN,3.5789,819.54,333.47,0.05,0.055315
3.9634,1739,637.89,-50.738,643.32,50.963,217.91,0.023495,217.91,0.0061776,83.406,4.7757,32.9,-106,9.7901,0.051443,5.8608e-6,0.034459,0.012653,33262,24.446,29.367,0.13894,335.6,333.04,0.16781,1.9308,1.7062e8,567.06,1937.4,0.4986,0.4986,0.25937,0.10976,0.12948,0.0072425,0.0011132,2.0981e-4,0,0,0,0,2.2486e-8,0.079049,15.24,182.41,82.29,0.077046,NaN,3.3712,816.3,333.34,0.05,0.055945
4.0134,1770.9,635.36,-53.025,640.78,53.279,222.07,0.02561,222.07,0.0066074,83.167,5.1952,32.9,-106,9.79,0.044972,5.8176e-6,0.10092,0.0049692,33259,20.97,29.366,0.13893,336,333.04,0.19472,1.9239,1.695e8,473.05,1920.5,0.49978,0.49978,0.26011,0.10972,0.12994,0.00635,0.0011597,-3.077e-4,0,0,0,0,1.944e-7,0.078738,15.24,182.41,82.293,0.07657,NaN,3.1643,813.08,333.22,0.05,0.056863
4.0634,1802.6,632.73,-55.29,638.13,55.583,226.23,0.027976,226.23,0.0070855,82.904,5.7044,32.9,-106,9.7899,0.032558,5.766e-6,0.16996,0.014305,33255,17.493,29.365,0.13892,336.47,333.03,0.22565,1.9167,1.6836e8,379.04,1903.2,0.50102,0.50102,0.2609,0.10969,0.13043,0.0046089,0.0012959,3.0447e-4,0,0,0,0,5.5595e-7,0.078413,15.24,182.41,82.3,0.072565,NaN,2.9582,809.87,333.09,0.05,0.057383
4.1134,1834.1,629.98,-57.545,635.37,57.878,230.36,0.030549,230.36,0.0075982,82.616,6.1977,32.9,-106,9.7898,0.02051,5.7982e-6,0.23515,0.0033743,33252,14.017,29.363,0.13891,336.95,333.03,0.25746,1.9091,1.6719e8,285.03,1885.6,0.50233,0.50233,0.26172,0.10965,0.13095,0.0029114,3.3625e-4,-2.1645e-4,0,0,0,0,1.0735e-6,0.078073,15.24,182.41,82.31,0.062556,NaN,2.753,806.68,332.97,0.05,0.057764
4.1634,1865.6,627.11,-59.788,632.49,60.164,234.49,0.033266,234.49,0.0081285,82.303,6.7185,32.9,-106,9.7897,0.006261,5.7078e-6,0.25292,0.02567,33248,10.54,29.362,0.1389,337.47,333.03,0.29136,1.9011,1.6599e8,191.02,1867.6,0.5037,0.5037,0.26259,0.10962,0.1315,8.9117e-4,7.2889e-4,-4.3008e-4,0,0,0,0,1.2533e-6,0.077719,15.24,182.41,82.322,0.048784,NaN,2.5488,803.5,332.84,0.05,0.059438
4.2134,1896.9,624.14,-62.017,629.5,62.441,238.59,0.036044,238.59,0.0086556,81.962,7.2662,32.9,-106,9.7896,0.010201,5.7211e-6,-0.24269,0.026724,33245,7.0638,29.361,0.13889,337.92,333.02,0.32117,1.8928,1.6477e8,97.012,1849.3,0.50515,0.50515,0.26349,0.10958,0.13208,0.0014597,5.4918e-4,-2.2072e-4,0,0,0,0,-1.1649e-6,0.077352,15.24,182.41,82.335,0.034811,NaN,2.3454,800.33,332.72,0.05,0.061732
4.2634,1928,621.05,-63.945,626.39,64.401,242.68,0.038809,242.68,0.0091627,81.598,7.6513,32.9,-106,9.7895,0.019079,5.7159e-6,-0.21743,0.013386,33241,3.5874,29.36,0.13888,338.36,333.02,0.35025,1.8841,1.6353e8,13.3,1830.7,0.50666,0.50666,0.26444,0.10953,0.13269,0.0027462,0.0012005,3.3685e-4,0,0,0,0,-9.4443e-7,0.07697,15.24,182.41,82.346,0.020007,NaN,2.1431,797.18,332.6,0.05,0.062256
4.3134,1959,617.87,-63.77,623.18,64.238,246.75,0.041496,246.75,0.0096354,81.213,7.7419,32.9,-106,9.7894,0.027167,5.6058e-6,-0.14791,-0.0046451,33239,0.9246,29.359,0.13888,338.82,333.02,0.38047,1.8752,1.6227e8,0,1811.9,0.50823,0.50824,0.26542,0.10949,0.13332,0.0039341,0.0012167,-3.1612e-4,0,0,0,0,-4.4157e-7,0.076577,15.24,182.41,82.355,0.0095965,NaN,1.9418,794.09,332.48,0.05,0.063664
4.3634,1989.8,614.69,-63.214,619.98,63.684,250.8,0.044061,250.8,0.010066,80.828,7.7263,32.9,-106,9.7893,0.031549,5.4778e-6,-0.066897,0.0038319,33238,0,29.358,0.13887,339.3,333.02,0.41206,1.8662,1.6104e8,0,1793.4,0.50981,0.50981,0.26641,0.10944,0.13396,0.0045946,0.0019694,-2.8322e-4,0,0,0,0,-9.1259e-8,0.076184,15.24,182.41,82.361,0.0045574,NaN,1.7415,791.12,332.35,0.05,0.065076
4.4134,2020.4,611.55,-62.647,616.81,63.137,254.84,0.046487,254.84,0.010452,80.437,7.8532,32.9,-106,9.7892,0.044896,5.5493e-6,0.068033,0.018367,33238,0,29.358,0.13887,339.7,333.02,0.43815,1.8574,1.5983e8,0,1775.3,0.51137,0.51138,0.26738,0.1094,0.1346,0.0065803,0.0033782,-1.3121e-4,0,0,0,0,9.5352e-8,0.075795,15.24,182.41,82.361,-8.4191e-4,NaN,1.5422,788.17,332.23,0.05,0.066139
4.4634,2050.9,608.43,-62.115,613.67,62.597,258.85,0.048759,258.85,0.010793,80.047,7.7552,32.9,-106,9.7891,0.043104,5.8424e-6,0.22357,0.021629,33238,0,29.358,0.13887,340.2,333.02,0.47147,1.8486,1.5863e8,0,1757.4,0.51294,0.51294,0.26835,0.10935,0.13524,0.0063489,0.0034362,4.9445e-4,0,0,0,0,1.0403e-6,0.075409,15.24,182.41,82.353,-0.002611,NaN,1.344,785.24,332.11,0.05,0.066885
4.5134,2081.3,605.33,-61.61,610.55,62.065,262.84,0.050882,262.84,0.011092,79.664,7.5002,32.9,-106,9.789,0.030275,5.8061e-6,0.36459,0.019785,33238,0,29.358,0.13887,340.79,333.02,0.50989,1.8399,1.5744e8,0,1739.6,0.5145,0.5145,0.26932,0.1093,0.13588,0.0044767,0.0023809,-3.2949e-5,0,0,0,0,2.7948e-6,0.075026,15.24,182.41,82.339,0.0023189,NaN,1.1467,782.32,331.99,0.05,0.067312
4.5634,2111.5,602.27,-61.128,607.46,61.541,266.81,0.052888,266.81,0.011357,79.3,7.1104,32.9,-106,9.7889,0.0078103,5.8642e-6,0.43039,0.087143,33238,0,29.358,0.13887,341.44,333.02,0.55278,1.8312,1.5626e8,0,1722,0.51606,0.51606,0.27028,0.10926,0.13652,0.0011583,4.6787e-4,1.4899e-4,0,0,0,0,3.9345e-6,0.074647,15.24,182.41,82.318,0.012215,NaN,0.9505,779.41,331.87,0.05,0.067713
4.6134,2141.5,599.22,-60.633,604.4,61.023,270.77,0.05483,270.77,0.011602,78.95,6.8848,32.9,-106,9.7888,0.0044003,5.8714e-6,-0.42549,0.077563,33238,0,29.358,0.13887,341.94,333.02,0.58517,1.8226,1.5509e8,0,1704.7,0.5176,0.5176,0.27123,0.10921,0.13716,6.5562e-4,5.9431e-4,1.4625e-4,0,0,0,0,-3.8844e-6,0.074271,15.24,182.41,82.296,0.02314,NaN,0.75526,776.52,331.76,0.05,0.068168
4.6634,2171.4,596.2,-60.142,601.36,60.512,274.71,0.05676,274.71,0.011838,78.611,6.6753,32.9,-106,9.7888,0.015311,5.8705e-6,-0.38564,0.013149,33238,0,29.358,0.13887,342.31,333.02,0.60968,1.8141,1.5394e8,0,1687.6,0.51915,0.51915,0.27218,0.10916,0.13781,0.0022945,0.0017289,-4.9526e-4,0,0,0,0,-3.2232e-6,0.073898,15.24,182.41,82.276,0.033081,NaN,0.561,773.64,331.64,0.05,0.0688
4.7134,2201.1,593.21,-59.643,598.35,60.005,278.63,0.058726,278.63,0.012076,78.28,6.5754,32.9,-106,9.7887,0.018768,5.7979e-6,-0.29868,-0.0040413,33238,0,29.358,0.13887,342.73,333.02,0.63743,1.8057,1.528e8,0,1670.8,0.52068,0.52068,0.27312,0.10911,0.13845,0.002827,0.0022489,2.6134e-4,0,0,0,0,-1.9529e-6,0.073528,15.24,182.41,82.259,0.046289,NaN,0.36772,770.78,331.52,0.05,0.069166
4.7634,2230.7,590.24,-59.147,595.36,59.503,282.54,0.060776,282.54,0.012325,77.953,6.4978,32.9,-106,9.7886,0.020466,5.8123e-6,-0.20108,-0.018285,33238,0,29.358,0.13887,343.19,333.02,0.66749,1.7974,1.5166e8,0,1654.1,0.52221,0.52222,0.27406,0.10907,0.13909,0.0030987,0.0022216,-4.9107e-4,0,0,0,0,-8.94e-7,0.073161,15.24,182.41,82.246,0.055072,NaN,0.17542,767.93,331.41,0.05,0.06966
4.8134,2260.1,587.29,-58.651,592.4,59.005,286.43,0.062947,286.43,0.012592,77.629,6.4565,32.9,-106,9.7885,0.019362,5.8019e-6,-0.1084,-0.011317,33238,0,29.358,0.13887,343.72,333.02,0.7025,1.7891,1.5054e8,0,1637.5,0.52374,0.52374,0.27499,0.10902,0.13974,0.0029479,0.0016942,3.8438e-4,0,0,0,0,-2.6242e-7,0.072798,15.24,182.41,82.239,0.060825,NaN,-0.015933,765.1,331.29,0.05,0.070223
4.8634,2289.4,584.37,-58.163,589.46,58.513,290.3,0.065251,290.3,0.012878,77.308,6.3935,32.9,-106,9.7884,0.019277,5.8136e-6,0.0010523,-0.029345,33238,0,29.358,0.13887,344.24,333.02,0.73642,1.7808,1.4943e8,0,1621.2,0.52527,0.52527,0.27592,0.10897,0.14039,0.0029513,0.0018496,-3.5888e-4,0,0,0,0,0,0.072437,15.24,182.41,82.236,0.057612,NaN,-0.20633,762.28,331.17,0.05,0.071361
4.9134,2318.6,581.48,-57.669,586.55,58.025,294.16,0.067664,294.16,0.01318,76.989,6.4166,32.9,-106,9.7883,0.01268,5.8558e-6,0.09913,-0.037529,33238,0,29.358,0.13887,344.8,333.02,0.77301,1.7726,1.4832e8,0,1605,0.52679,0.5268,0.27684,0.10892,0.14104,0.0019508,0.0011652,2.158e-4,0,0,0,0,2.2385e-7,0.072079,15.24,182.41,82.238,0.04376,NaN,-0.39578,759.47,331.06,0.05,0.071856
4.9634,2347.6,578.61,-57.158,583.66,57.54,298,0.070118,298,0.013482,76.663,6.6201,32.9,-106,9.7882,0.007074,5.828e-6,-0.10711,0.029523,33238,0,29.358,0.13887,345.34,333.02,0.80827,1.7645,1.4724e8,0,1589.1,0.5283,0.5283,0.27775,0.10887,0.14168,0.0010937,0.0012788,4.493e-4,0,0,0,0,-2.6393e-7,0.071724,15.24,182.41,82.243,0.02572,NaN,-0.58429,756.68,330.94,0.05,0.073811
5.0134,2376.4,575.76,-56.662,580.8,57.063,301.82,0.072535,301.82,0.013769,76.328,6.7555,32.9,-106,9.7881,0.02185,5.7862e-6,-0.0099376,0.026062,33238,0,29.358,0.13887,345.71,333.02,0.83252,1.7565,1.4616e8,0,1573.4,0.52981,0.52981,0.27866,0.10882,0.14233,0.0034006,0.0025612,-1.2753e-4,0,0,0,0,0,0.071373,15.24,182.41,82.246,0.012609,NaN,-0.77187,753.91,330.83,0.05,0.076522
5.0634,2405.2,572.94,-56.192,577.96,56.594,305.63,0.074861,305.63,0.014034,75.99,6.7289,32.9,-106,9.788,0.024618,5.6634e-6,0.12983,0.028339,33238,0,29.358,0.13887,346.16,333.02,0.86242,1.7485,1.4509e8,0,1557.8,0.53131,0.53132,0.27957,0.10877,0.14298,0.0038525,0.0037092,-2.8395e-4,0,0,0,0,3.9545e-7,0.071024,15.24,182.41,82.243,0.0052896,NaN,-0.95854,751.14,330.72,0.05,0.078131
5.1134,2433.7,570.14,-55.745,575.14,56.131,309.42,0.077073,309.42,0.014272,75.658,6.5737,32.9,-106,9.7879,0.017457,5.9643e-6,0.26132,0.032599,33238,0,29.358,0.13887,346.69,333.02,0.89684,1.7406,1.4403e8,0,1542.4,0.53282,0.53282,0.28047,0.10872,0.14363,0.0027445,0.0026279,-4.4412e-4,0,0,0,0,1.6178e-6,0.070678,15.24,182.41,82.233,0.0067313,NaN,-1.1443,748.39,330.61,0.05,0.078586
5.1634,2462.2,567.37,-55.309,572.34,55.679,313.2,0.079184,313.2,0.014486,75.333,6.4081,32.9,-106,9.7879,0.0088791,5.9423e-6,0.33865,0.046634,33238,0,29.358,0.13887,347.21,333.02,0.93137,1.7327,1.4299e8,0,1527.3,0.53431,0.53431,0.28136,0.10866,0.14428,0.0014021,0.001049,-2.4707e-4,0,0,0,0,2.7435e-6,0.070335,15.24,182.41,82.218,0.015909,NaN,-1.3291,745.71,330.49,0.05,0.078951
5.2134,2490.5,564.61,-54.889,569.57,55.238,316.96,0.081238,316.96,0.014685,75.018,6.1989,32.9,-106,9.7878,0.0034782,5.912e-6,-0.35255,0.069676,33238,0,29.358,0.13887,347.71,333.02,0.96375,1.7249,1.4197e8,0,1512.5,0.5358,0.5358,0.28225,0.10861,0.14494,5.5177e-4,8.0477e-5,-4.0161e-4,0,0,0,0,-3.0024e-6,0.069995,15.24,182.41,82.2,0.02786,NaN,-1.5131,743.12,330.38,0.05,0.079316
5.2634,2518.6,561.88,-54.471,566.82,54.802,320.7,0.083291,320.7,0.014881,74.713,6.0087,32.9,-106,9.7877,0.014367,5.8866e-6,-0.29239,0.0053056,33238,0,29.358,0.13887,348.07,333.02,0.98731,1.7172,1.4097e8,0,1497.9,0.53729,0.53729,0.28314,0.10856,0.14559,0.0022926,0.0027414,3.2446e-4,0,0,0,0,-2.0852e-6,0.069657,15.24,182.41,82.183,0.042439,NaN,-1.6961,740.55,330.27,0.05,0.07969
5.3134,2546.7,559.16,-54.036,564.09,54.367,324.43,0.085397,324.43,0.015082,74.414,5.9944,32.9,-106,9.7876,0.011987,5.9207e-6,-0.19554,-0.02984,33238,0,29.358,0.13887,348.52,333.02,1.017,1.7095,1.3997e8,0,1483.5,0.53877,0.53877,0.28402,0.10851,0.14624,0.0019219,0.0014642,3.8945e-4,0,0,0,0,-9.4164e-7,0.069322,15.24,182.41,82.171,0.051714,NaN,-1.8783,737.98,330.16,0.05,0.080054
5.3634,2574.6,556.47,-53.597,561.39,53.936,328.14,0.08759,328.14,0.015294,74.113,6.0383,32.9,-106,9.7875,0.0051925,5.9016e-6,-0.13193,-0.082771,33238,0,29.358,0.13887,349,333.02,1.0484,1.7019,1.3899e8,0,1469.3,0.54024,0.54024,0.28489,0.10846,0.14689,8.3611e-4,0.001245,-2.9964e-4,0,0,0,0,-4.3278e-7,0.06899,15.24,182.41,82.163,0.053334,NaN,-2.0596,735.43,330.05,0.05,0.080392
5.4134,2602.3,553.8,-53.168,558.7,53.511,331.84,0.089871,331.84,0.015517,73.81,6.0499,32.9,-106,9.7874,0.0019266,5.9362e-6,0.058569,-0.12279,33238,0,29.358,0.13887,349.52,333.02,1.0824,1.6943,1.3801e8,0,1455.2,0.54171,0.54171,0.28576,0.1084,0.14755,3.119e-4,1.6029e-4,-3.2067e-4,0,0,0,0,8.6109e-8,0.06866,15.24,182.41,82.156,0.048448,NaN,-2.24,732.89,329.94,0.05,0.080731
5.4634,2629.9,551.16,-52.756,556.04,53.091,335.52,0.092214,335.52,0.015747,73.509,5.959,32.9,-106,9.7873,0.0024755,5.9183e-6,-0.13471,-0.050383,33238,0,29.358,0.13887,350.02,333.02,1.1157,1.6868,1.3704e8,0,1441.2,0.54318,0.54318,0.28662,0.10835,0.14821,4.0315e-4,7.9689e-4,3.3663e-4,0,0,0,0,-4.599e-7,0.068333,15.24,182.41,82.149,0.037487,NaN,-2.4196,730.37,329.83,0.05,0.081504
5.5134,2657.4,548.53,-52.351,553.39,52.676,339.19,0.094569,339.19,0.015975,73.216,5.8489,32.9,-106,9.7873,0.0071528,5.8955e-6,-0.079778,-0.025196,33238,0,29.358,0.13887,350.49,333.02,1.1463,1.6793,1.3608e8,0,1427.4,0.54465,0.54465,0.28748,0.1083,0.14887,0.0011721,0.0014861,-2.3814e-4,0,0,0,0,-1.6285e-7,0.068008,15.24,182.41,82.143,0.022294,NaN,-2.5983,727.85,329.72,0.05,0.082006
5.5634,2684.8,545.92,-51.916,550.77,52.263,342.84,0.096877,342.84,0.01619,72.919,6.0114,32.9,-106,9.7872,0.010502,5.8982e-6,0.083732,0.043963,33238,0,29.358,0.13887,350.95,333.02,1.1766,1.672,1.3513e8,0,1413.8,0.5461,0.5461,0.28833,0.10824,0.14952,0.0017313,0.0018242,-3.1303e-4,0,0,0,0,1.8109e-7,0.067686,15.24,182.41,82.14,0.011293,NaN,-2.7761,725.35,329.62,0.05,0.082389
5.6134,2712,543.34,-51.506,548.17,51.856,346.48,0.099095,346.48,0.016387,72.617,6.019,32.9,-106,9.7871,0.015047,6.0467e-6,0.18957,0.033958,33238,0,29.358,0.13887,351.4,333.02,1.2058,1.6646,1.3419e8,0,1400.4,0.54755,0.54755,0.28918,0.10819,0.15018,0.0024955,0.0030122,3.9672e-5,0,0,0,0,9.3706e-7,0.067367,15.24,182.41,82.133,0.0090248,NaN,-2.9531,722.86,329.51,0.05,0.082799
5.6634,2739.1,540.77,-51.125,545.58,51.457,350.11,0.10122,350.11,0.016565,72.321,5.8292,32.9,-106,9.787,0.0041566,6.0437e-6,0.22305,0.12311,33238,0,29.358,0.13887,351.95,333.02,1.2425,1.6573,1.3325e8,0,1387,0.549,0.549,0.29003,0.10813,0.15085,6.9261e-4,0.001168,-3.5912e-4,0,0,0,0,1.3095e-6,0.06705,15.24,182.41,82.122,0.014857,NaN,-3.1293,720.38,329.4,0.05,0.084317
5.7134,2766.1,538.22,-50.746,543.02,51.062,353.71,0.10329,353.71,0.016731,72.033,5.6732,32.9,-106,9.7869,0.0054906,6.0176e-6,-0.24717,0.073554,33238,0,29.358,0.13887,352.41,333.02,1.2723,1.6501,1.3233e8,0,1373.8,0.55045,0.55045,0.29087,0.10808,0.15151,9.2007e-4,7.1433e-4,4.6196e-4,0,0,0,0,-1.6233e-6,0.066735,15.24,182.41,82.108,0.025082,NaN,-3.3046,717.91,329.3,0.05,0.085147
5.7634,2792.9,535.7,-50.376,540.48,50.672,357.31,0.10534,357.31,0.016891,71.755,5.4698,32.9,-106,9.7868,0.018095,6.0942e-6,-0.15371,0.0259,33238,0,29.358,0.13887,352.77,333.02,1.2959,1.6428,1.3141e8,0,1360.7,0.5519,0.5519,0.29171,0.10802,0.15218,0.0030518,0.0034927,9.3473e-5,0,0,0,0,-6.3372e-7,0.066423,15.24,182.41,82.098,0.03633,NaN,-3.4791,715.45,329.19,0.05,0.086491
5.8134,2819.7,533.19,-49.99,537.96,50.283,360.89,0.10741,360.89,0.017052,71.483,5.4269,32.9,-106,9.7868,0.017665,5.9095e-6,-0.020124,0.015281,33238,0,29.358,0.13887,353.22,333.02,1.3255,1.6357,1.3049e8,0,1347.8,0.55334,0.55334,0.29254,0.10797,0.15284,0.0029954,0.0043965,3.4672e-4,0,0,0,0,-1.0964e-8,0.066114,15.24,182.41,82.093,0.045188,NaN,-3.6528,713.01,329.09,0.05,0.087033
5.8634,2846.3,530.7,-49.601,535.45,49.897,364.46,0.10954,364.46,0.01722,71.212,5.4281,32.9,-106,9.7867,0.013229,5.6925e-6,0.12411,0.015696,33238,0,29.358,0.13887,353.69,333.02,1.3566,1.6286,1.2959e8,0,1335,0.55478,0.55478,0.29336,0.10791,0.15351,0.0022543,0.0034002,1.3928e-4,0,0,0,0,4.2097e-7,0.065806,15.24,182.41,82.096,0.047285,NaN,-3.8257,710.58,328.98,0.05,0.087411
5.9134,2872.7,528.23,-49.195,532.97,49.512,368.01,0.11172,368.01,0.017394,70.937,5.5903,32.9,-106,9.7866,0.005074,5.6996e-6,-0.15966,0.058446,33238,0,29.358,0.13887,354.18,333.02,1.3889,1.6215,1.287e8,0,1322.4,0.55621,0.55621,0.29418,0.10785,0.15417,8.6862e-4,7.2838e-4,7.8238e-5,0,0,0,0,-7.0318e-7,0.065501,15.24,182.41,82.104,0.042228,NaN,-3.9978,708.15,328.88,0.05,0.092704
5.9634,2899.1,525.78,-48.804,530.5,49.133,371.55,0.11394,371.55,0.01757,70.654,5.6788,32.9,-106,9.7865,0.016997,5.593e-6,-0.066024,0.019602,33238,0,29.358,0.13887,354.52,333.02,1.4106,1.6146,1.2781e8,0,1309.9,0.55764,0.55764,0.295,0.1078,0.15484,0.0029276,0.004179,4.0172e-4,0,0,0,0,-1.2137e-7,0.065198,15.24,182.41,82.111,0.033823,NaN,-4.169,705.74,328.77,0.05,0.093012
6.0134,2925.3,523.35,-48.434,528.06,48.761,375.08,0.11616,375.08,0.017745,70.372,5.6407,32.9,-106,9.7864,0.01821,5.7139e-6,0.080491,0.0085637,33238,0,29.358,0.13887,354.92,333.02,1.4373,1.6076,1.2693e8,0,1297.6,0.55906,0.55906,0.29581,0.10774,0.15551,0.0031529,0.0043044,1.867e-4,0,0,0,0,1.8206e-7,0.064898,15.24,182.41,82.11,0.029372,NaN,-4.3395,703.34,328.67,0.05,0.093334
6.0634,2951.4,520.93,-48.065,525.63,48.394,378.59,0.11837,378.59,0.017914,70.089,5.6297,32.9,-106,9.7864,0.021179,5.7141e-6,0.26833,0.013621,33238,0,29.358,0.13887,355.31,333.02,1.4625,1.6007,1.2606e8,0,1285.4,0.56047,0.56047,0.29661,0.10768,0.15618,0.0036863,0.0055056,-1.3794e-5,0,0,0,0,2.0419e-6,0.0646,15.24,182.41,82.102,0.028042,NaN,-4.5092,700.96,328.57,0.05,0.093639
6.1134,2977.4,518.54,-47.739,523.22,48.041,382.09,0.12056,382.09,0.018078,69.814,5.3809,32.9,-106,9.7863,0.0035993,5.7158e-6,0.36662,0.085489,33238,0,29.358,0.13887,355.94,333.02,1.5043,1.5939,1.2522e8,0,1273.5,0.56189,0.56189,0.29742,0.10763,0.15685,6.2955e-4,7.5445e-4,3.0322e-4,0,0,0,0,3.8471e-6,0.064304,15.24,182.41,82.085,0.028383,NaN,-4.6781,698.7,328.46,0.05,0.093951
6.1634,3003.3,516.16,-47.412,520.82,47.692,385.57,0.12273,385.57,0.018237,69.55,5.1674,32.9,-106,9.7862,0.011537,5.6745e-6,-0.3535,0.02715,33238,0,29.358,0.13887,356.39,333.02,1.5335,1.5871,1.2439e8,0,1261.8,0.5633,0.5633,0.29821,0.10757,0.15752,0.0020319,0.0029145,-4.3586e-4,0,0,0,0,-3.6096e-6,0.06401,15.24,182.41,82.066,0.032484,NaN,-4.8463,696.46,328.36,0.05,0.094237
6.2134,3029,513.8,-47.088,518.45,47.348,389.04,0.1249,389.04,0.018394,69.298,4.9517,32.9,-106,9.7861,0.02662,5.839e-6,-0.16719,0.01625,33238,0,29.358,0.13887,356.77,333.02,1.5586,1.5803,1.2356e8,0,1250.1,0.56472,0.56472,0.29901,0.10751,0.1582,0.0047233,0.0071436,4.9766e-4,0,0,0,0,-8.1492e-7,0.063719,15.24,182.41,82.053,0.040626,NaN,-5.0136,694.22,328.26,0.05,0.094709
6.2634,3054.7,511.45,-46.741,516.09,47.001,392.5,0.12709,392.5,0.018553,69.051,4.9352,32.9,-106,9.786,0.02424,5.9005e-6,0.059023,0.014012,33238,0,29.358,0.13887,357.28,333.02,1.5917,1.5736,1.2273e8,0,1238.6,0.56612,0.56612,0.2998,0.10745,0.15887,0.0043267,0.0071397,8.5793e-5,0,0,0,0,1.0249e-7,0.063429,15.24,182.41,82.05,0.046347,NaN,-5.1802,691.99,328.16,0.05,0.095887
6.3134,3080.2,509.12,-46.388,513.75,46.655,395.95,0.12934,395.95,0.018716,68.803,4.9829,32.9,-106,9.786,0.015685,5.9594e-6,0.26371,0.0062992,33238,0,29.358,0.13887,357.82,333.02,1.6272,1.5669,1.2192e8,0,1227.2,0.56753,0.56753,0.30058,0.10739,0.15955,0.0028148,0.0044696,4.9076e-4,0,0,0,0,2.0648e-6,0.063142,15.24,182.41,82.058,0.045518,NaN,-5.3461,689.78,328.06,0.05,0.09634
6.3634,3105.6,506.81,-46.019,511.43,46.31,399.38,0.13161,399.38,0.018882,68.55,5.1809,32.9,-106,9.7859,0.0064395,5.8805e-6,-0.31665,0.030684,33238,0,29.358,0.13887,358.35,333.02,1.6623,1.5603,1.2111e8,0,1216,0.56892,0.56892,0.30136,0.10733,0.16023,0.0011618,0.001612,-3.7838e-4,0,0,0,0,-3.0039e-6,0.062857,15.24,182.41,82.074,0.037763,NaN,-5.5112,687.57,327.96,0.05,0.098243
6.4134,3130.8,504.52,-45.649,509.12,45.97,402.8,0.1339,402.8,0.019046,68.284,5.4208,32.9,-106,9.7858,0.032129,5.8789e-6,-0.12269,0.012747,33238,0,29.358,0.13887,358.61,333.02,1.6795,1.5538,1.2031e8,0,1204.9,0.5703,0.5703,0.30213,0.10727,0.1609,0.005842,0.010004,2.4975e-4,0,0,0,0,-4.5505e-7,0.062574,15.24,182.41,82.086,0.029418,NaN,-5.6755,685.37,327.86,0.05,0.10124
6.4634,3156,502.25,-45.309,506.83,45.638,406.21,0.13616,406.21,0.019206,68.011,5.4684,32.9,-106,9.7857,0.04034,5.8781e-6,0.24212,0.0024217,33238,0,29.358,0.13887,359,333.02,1.7048,1.5473,1.1952e8,0,1193.9,0.57168,0.57169,0.30289,0.10721,0.16158,0.0073821,0.01243,-1.6693e-4,0,0,0,0,1.7882e-6,0.062292,15.24,182.41,82.083,0.027507,NaN,-5.8391,683.18,327.76,0.05,0.10382
6.5134,3181.1,499.99,-45.005,504.56,45.313,409.6,0.1384,409.6,0.019359,67.742,5.2801,32.9,-106,9.7857,0.026825,5.9722e-6,0.58327,0.0064419,33238,0,29.358,0.13887,359.54,333.02,1.7402,1.5408,1.1874e8,0,1183.1,0.57306,0.57307,0.30366,0.10715,0.16225,0.0049321,0.0086401,4.5985e-4,0,0,0,0,1.0471e-5,0.062013,15.24,182.41,82.062,0.030371,NaN,-6.002,681.01,327.66,0.05,0.10567
6.5634,3206,497.75,-44.719,502.3,44.996,412.98,0.14062,412.98,0.019509,67.485,4.9838,32.9,-106,9.7856,0.002797,5.7128e-6,0.72482,-0.021093,33238,0,29.358,0.13887,360.15,333.02,1.7802,1.5344,1.1796e8,0,1172.3,0.57444,0.57444,0.30441,0.10709,0.16293,5.1628e-4,5.7661e-4,-4.2835e-4,0,0,0,0,1.6315e-5,0.061736,15.24,182.41,82.028,0.036609,NaN,-6.1641,678.84,327.56,0.05,0.10608
6.6134,3230.8,495.52,-44.439,500.06,44.684,416.35,0.14284,416.35,0.019657,67.243,4.6784,32.9,-106,9.7855,0.022421,5.7233e-6,-0.63289,-0.0032768,33238,0,29.358,0.13887,360.43,333.02,1.7983,1.528,1.1719e8,0,1161.7,0.57581,0.57581,0.30517,0.10703,0.16361,0.0041679,0.0074663,3.7576e-4,0,0,0,0,-1.2551e-5,0.061461,15.24,182.41,81.993,0.042086,NaN,-6.3255,676.68,327.47,0.05,0.10683
6.6634,3255.6,493.3,-44.163,497.83,44.377,419.71,0.14509,419.71,0.019807,67.017,4.354,32.9,-106,9.7854,0.048942,5.4825e-6,-0.27393,0.0010566,33238,0,29.358,0.13887,360.65,333.02,1.8129,1.5216,1.1642e8,0,1151.1,0.57719,0.5772,0.30592,0.10697,0.1643,0.0091665,0.016849,1.0747e-4,0,0,0,0,-2.3723e-6,0.061188,15.24,182.41,81.97,0.046373,NaN,-6.4862,674.53,327.37,0.05,0.10721
6.7134,3280.2,491.1,-43.864,495.62,44.066,423.05,0.14738,423.05,0.01996,66.805,4.2095,32.9,-106,9.7853,0.058217,5.0227e-6,0.30459,-0.0063918,33238,0,29.358,0.13887,360.99,333.02,1.8356,1.5152,1.1565e8,0,1140.6,0.57858,0.57858,0.30668,0.10691,0.16499,0.010972,0.019938,-4.4803e-4,0,0,0,0,2.9596e-6,0.060917,15.24,182.41,81.97,0.045889,NaN,-6.6462,672.4,327.27,0.05,0.10753
6.7634,3304.7,488.92,-43.518,493.43,43.743,426.39,0.1497,426.39,0.020115,66.59,4.4225,32.9,-106,9.7853,0.033784,5.1325e-6,0.7699,-0.0080635,33238,0,29.358,0.13887,361.58,333.02,1.8738,1.5089,1.1489e8,0,1130.2,0.57995,0.57996,0.30742,0.10685,0.16568,0.0063903,0.01168,4.8639e-4,0,0,0,0,1.9079e-5,0.060648,15.24,182.41,81.998,0.041032,NaN,-6.8054,670.27,327.17,0.05,0.10781
6.8134,3329.1,486.75,-43.153,491.25,43.42,429.71,0.15203,429.71,0.020271,66.361,4.8048,32.9,-106,9.7852,0.007424,4.8629e-6,-0.9484,-0.06131,33238,0,29.358,0.13887,362.16,333.02,1.9125,1.5027,1.1414e8,0,1120,0.58132,0.58132,0.30817,0.10679,0.16637,0.0014091,0.0024214,-4.7996e-5,0,0,0,0,-2.921e-5,0.060381,15.24,182.41,82.043,0.034968,NaN,-6.964,668.15,327.08,0.05,0.10808
6.8634,3353.4,484.6,-42.77,489.09,43.105,433.02,0.15435,433.02,0.020423,66.105,5.3688,32.9,-106,9.7851,0.065201,5.3639e-6,-0.52495,-0.0019027,33238,0,29.358,0.13887,362.16,333.02,1.912,1.4965,1.134e8,0,1109.9,0.58267,0.58268,0.30889,0.10672,0.16705,0.012498,0.02389,-4.8393e-4,0,0,0,0,-9.0282e-6,0.060115,15.24,182.41,82.082,0.030781,NaN,-7.1218,666.04,326.98,0.05,0.10834
6.9134,3377.5,482.47,-42.46,486.94,42.803,436.32,0.15664,436.32,0.02057,65.834,5.4123,32.9,-106,9.785,0.073797,5.164e-6,0.22682,0.0039153,33238,0,29.358,0.13887,362.53,333.02,1.9366,1.4904,1.1267e8,0,1099.9,0.58402,0.58403,0.30962,0.10666,0.16774,0.014239,0.027865,-6.4112e-5,0,0,0,0,1.7004e-6,0.059851,15.24,182.41,82.09,0.028826,NaN,-7.279,663.94,326.89,0.05,0.10859
6.9634,3401.6,480.36,-42.191,484.81,42.509,439.61,0.15891,439.61,0.020712,65.569,5.1848,32.9,-106,9.785,0.055426,5.0683e-6,0.91222,0.012019,33238,0,29.358,0.13887,363.09,333.02,1.9733,1.4843,1.1194e8,0,1090.1,0.58537,0.58537,0.31034,0.1066,0.16843,0.010744,0.02105,-1.1894e-4,0,0,0,0,2.7744e-5,0.059589,15.24,182.41,82.061,0.029883,NaN,-7.4354,661.85,326.79,0.05,0.10885
